[
  {
    "name": "Edi Nails Budapest",
    "address": "Mozsár utca 6, 1066 Budapest",
    "phone": "+36 1 227 2022",
    "lat": 47.50378,
    "lng": 19.05896
  },
  {
    "name": "Milano Nail Spa Budapest",
    "address": "József körút 36, 1085 Budapest",
    "phone": "+36 30 163 3369",
    "lat": 47.49229,
    "lng": 19.07044
  },
  {
    "name": "Hana Nail Lounge",
    "address": "Wesselényi utca 75, 1077 Budapest",
    "phone": "+36 20 555 7711",
    "lat": 47.50302,
    "lng": 19.06765
  },
  {
    "name": "A-List Salon & Spa",
    "address": "József Nádor tér 8, 1051 Budapest",
    "phone": "+36 70 615 1200",
    "lat": 47.49846,
    "lng": 19.04833
  },
  {
    "name": "Nail & Go Beauty Bar",
    "address": "Király utca 8-10, 1061 Budapest",
    "phone": "+36 20 432 9090",
    "lat": 47.50077,
    "lng": 19.05794
  },
  {
    "name": "Exotic Nail Bar",
    "address": "Pannónia utca 33, 1136 Budapest",
    "phone": "+36 20 343 6642",
    "lat": 47.52716,
    "lng": 19.05833
  },
  {
    "name": "Brooklyn Nails Budapest",
    "address": "Kazinczy utca 16, 1075 Budapest",
    "phone": "+36 20 555 1133",
    "lat": 47.49798,
    "lng": 19.06297
  },
  {
    "name": "Nail Boutique Budapest",
    "address": "Múzeum körút 5, 1053 Budapest",
    "phone": "+36 1 266 3333",
    "lat": 47.49315,
    "lng": 19.05482
  },
  {
    "name": "Deluxe Nails Studio",
    "address": "Teréz körút 22, 1066 Budapest",
    "phone": "+36 20 665 8880",
    "lat": 47.50509,
    "lng": 19.06240
  },
  {
    "name": "Pink Beauty Nails",
    "address": "Rákóczi út 54, 1074 Budapest",
    "phone": "+36 70 220 1122",
    "lat": 47.49725,
    "lng": 19.07144
  },
  {
    "name": "Luxury Nails Fashion Street",
    "address": "Deák Ferenc utca 19, 1052 Budapest",
    "phone": "+36 30 123 9876",
    "lat": 47.49772,
    "lng": 19.05001
  },
  {
    "name": "Royal Nails Studio",
    "address": "Váci utca 9, 1052 Budapest",
    "phone": "+36 1 781 2280",
    "lat": 47.49370,
    "lng": 19.05213
  },
  {
    "name": "Candy Nails Budapest",
    "address": "Margit körút 44, 1027 Budapest",
    "phone": "+36 70 779 0090",
    "lat": 47.51321,
    "lng": 19.03054
  },
  {
    "name": "Urban Nails Budapest",
    "address": "Üllői út 14, 1085 Budapest",
    "phone": "+36 20 333 5566",
    "lat": 47.48896,
    "lng": 19.07222
  },
  {
    "name": "Princess Nail Art",
    "address": "Lehel utca 14, 1134 Budapest",
    "phone": "+36 70 220 5588",
    "lat": 47.52502,
    "lng": 19.06618
  }
]
