[
  {
    "id": 1,
    "name": "Nail Salon Budapest - Pink Beauty",
    "address": "Budapest, Andrássy út 12",
    "phone": "+36 30 123 4567",
    "images": ["/images/salon1.jpg"],
    "location": { "lat": 47.5002, "lng": 19.0564 }
  },
  {
    "id": 2,
    "name": "Luxury Nails & Spa",
    "address": "Budapest, Király utca 22",
    "phone": "+36 70 222 3344",
    "images": ["/images/salon2.jpg"],
    "location": { "lat": 47.5020, "lng": 19.0591 }
  },
  {
    "id": 3,
    "name": "Diamond Nails Studio",
    "address": "Budapest, Oktogon tér 3",
    "phone": "+36 20 555 7890",
    "images": ["/images/salon3.jpg"],
    "location": { "lat": 47.5055, "lng": 19.0612 }
  },
  {
    "id": 4,
    "name": "Budapest Nail Art Center",
    "address": "Budapest, Váci utca 45",
    "phone": "+36 30 848 5566",
    "images": ["/images/salon4.jpg"],
    "location": { "lat": 47.4923, "lng": 19.0521 }
  },
  {
    "id": 5,
    "name": "Lotus Nails",
    "address": "Budapest, József körút 55",
    "phone": "+36 70 333 1122",
    "images": ["/images/salon5.jpg"],
    "location": { "lat": 47.4962, "lng": 19.0690 }
  },
  {
    "id": 6,
    "name": "Queen Nails Budapest",
    "address": "Budapest, Rákóczi út 19",
    "phone": "+36 70 345 6677",
    "images": ["/images/salon6.jpg"],
    "location": { "lat": 47.4961, "lng": 19.0631 }
  },
  {
    "id": 7,
    "name": "Golden Nails Studio",
    "address": "Budapest, Üllői út 32",
    "phone": "+36 30 654 2233",
    "images": ["/images/salon7.jpg"],
    "location": { "lat": 47.4890, "lng": 19.0847 }
  },
  {
    "id": 8,
    "name": "Nails Paradise",
    "address": "Budapest, Wesselényi utca 18",
    "phone": "+36 70 777 8899",
    "images": ["/images/salon8.jpg"],
    "location": { "lat": 47.5026, "lng": 19.0638 }
  },
  {
    "id": 9,
    "name": "Royal Nails & Spa",
    "address": "Budapest, Ferenciek tere 10",
    "phone": "+36 20 222 4455",
    "images": ["/images/salon9.jpg"],
    "location": { "lat": 47.4930, "lng": 19.0540 }
  },
  {
    "id": 10,
    "name": "Budapest Beauty Nails",
    "address": "Budapest, Bajcsy-Zsilinszky út 14",
    "phone": "+36 30 123 7788",
    "images": ["/images/salon10.jpg"],
    "location": { "lat": 47.5012, "lng": 19.0535 }
  }
]
