[
  {
    "id": 1,
    "name": "Nailbar Budapest",
    "lat": 47.49801,
    "lng": 19.03991,
    "address": "Andrássy út 10, Budapest",
    "image": "/images/salon1.jpg",
    "featured": true
  },
  {
    "id": 2,
    "name": "Pink Beauty Nails",
    "lat": 47.5041,
    "lng": 19.0552,
    "address": "Erzsébet körút 25, Budapest",
    "image": "/images/salon2.jpg",
    "featured": true
  },
  {
    "id": 3,
    "name": "Budapest Nail Shop",
    "lat": 47.5099,
    "lng": 19.0577,
    "address": "Nyugati tér 5, Budapest",
    "image": "/images/salon3.jpg",
    "featured": true
  },
  {
    "id": 4,
    "name": "Diamond Nails & Spa",
    "lat": 47.4988,
    "lng": 19.0543,
    "address": "Oktogon tér 8, Budapest",
    "image": "/images/salon4.jpg",
    "featured": false
  },
  {
    "id": 5,
    "name": "Luxury Nail Studio Budapest",
    "lat": 47.5034,
    "lng": 19.0455,
    "address": "Bajcsy-Zsilinszky út 14",
    "image": "/images/salon5.jpg",
    "featured": false
  },
  {
    "id": 6,
    "name": "ArtNail Pro Salon",
    "lat": 47.4922,
    "lng": 19.0631,
    "address": "Rákóczi út 32",
    "image": "/images/salon6.jpg",
    "featured": false
  },
  {
    "id": 7,
    "name": "Royal Nails Budapest",
    "lat": 47.4961,
    "lng": 19.0302,
    "address": "Fő utca 68",
    "image": "/images/salon7.jpg",
    "featured": false
  },
  {
    "id": 8,
    "name": "Profi ManiCure Studio",
    "lat": 47.5077,
    "lng": 19.0454,
    "address": "Szent István körút 10",
    "image": "/images/salon8.jpg",
    "featured": false
  },
  {
    "id": 9,
    "name": "NailArt Queen Budapest",
    "lat": 47.4913,
    "lng": 19.0511,
    "address": "Wesselényi utca 38",
    "image": "/images/salon9.jpg",
    "featured": false
  },
  {
    "id": 10,
    "name": "Perfect Nails Studio",
    "lat": 47.5039,
    "lng": 19.0309,
    "address": "Margit körút 15",
    "image": "/images/salon10.jpg",
    "featured": false
  }
]
